{
  "YYJ": { "name": "Victoria International", "city": "Victoria", "country": "CA", "lat": 48.6469, "lng": -123.4258, "tz": "America/Vancouver" },
  "YVR": { "name": "Vancouver International", "city": "Vancouver", "country": "CA", "lat": 49.1967, "lng": -123.1815, "tz": "America/Vancouver" },
  "YYZ": { "name": "Toronto Pearson International", "city": "Toronto", "country": "CA", "lat": 43.6777, "lng": -79.6248, "tz": "America/Toronto" },
  "YUL": { "name": "Montréal-Trudeau International", "city": "Montreal", "country": "CA", "lat": 45.4706, "lng": -73.7408, "tz": "America/Toronto" },
  "YEG": { "name": "Edmonton International", "city": "Edmonton", "country": "CA", "lat": 53.3097, "lng": -113.5797, "tz": "America/Edmonton" },
  "YYC": { "name": "Calgary International", "city": "Calgary", "country": "CA", "lat": 51.1225, "lng": -114.0128, "tz": "America/Edmonton" },
  "YOW": { "name": "Ottawa Macdonald-Cartier International", "city": "Ottawa", "country": "CA", "lat": 45.3225, "lng": -75.6692, "tz": "America/Toronto" },
  "LAX": { "name": "Los Angeles International", "city": "Los Angeles", "country": "US", "lat": 33.9425, "lng": -118.4081, "tz": "America/Los_Angeles" },
  "SFO": { "name": "San Francisco International", "city": "San Francisco", "country": "US", "lat": 37.6213, "lng": -122.379, "tz": "America/Los_Angeles" },
  "SEA": { "name": "Seattle-Tacoma International", "city": "Seattle", "country": "US", "lat": 47.4502, "lng": -122.3088, "tz": "America/Los_Angeles" },
  "PDX": { "name": "Portland International", "city": "Portland", "country": "US", "lat": 45.5898, "lng": -122.5951, "tz": "America/Los_Angeles" },
  "LAS": { "name": "Harry Reid International", "city": "Las Vegas", "country": "US", "lat": 36.08, "lng": -115.1522, "tz": "America/Los_Angeles" },
  "PHX": { "name": "Phoenix Sky Harbor International", "city": "Phoenix", "country": "US", "lat": 33.4373, "lng": -112.0078, "tz": "America/Phoenix" },
  "DEN": { "name": "Denver International", "city": "Denver", "country": "US", "lat": 39.8561, "lng": -104.6737, "tz": "America/Denver" },
  "DFW": { "name": "Dallas/Fort Worth International", "city": "Dallas", "country": "US", "lat": 32.8998, "lng": -97.0403, "tz": "America/Chicago" },
  "IAH": { "name": "George Bush Intercontinental", "city": "Houston", "country": "US", "lat": 29.9902, "lng": -95.3368, "tz": "America/Chicago" },
  "MSP": { "name": "Minneapolis-Saint Paul International", "city": "Minneapolis", "country": "US", "lat": 44.882, "lng": -93.2218, "tz": "America/Chicago" },
  "ORD": { "name": "O'Hare International", "city": "Chicago", "country": "US", "lat": 41.9742, "lng": -87.9073, "tz": "America/Chicago" },
  "MDW": { "name": "Chicago Midway International", "city": "Chicago", "country": "US", "lat": 41.7868, "lng": -87.7522, "tz": "America/Chicago" },
  "DTW": { "name": "Detroit Metropolitan Wayne County", "city": "Detroit", "country": "US", "lat": 42.2124, "lng": -83.3534, "tz": "America/Detroit" },
  "CLE": { "name": "Cleveland Hopkins International", "city": "Cleveland", "country": "US", "lat": 41.4117, "lng": -81.8498, "tz": "America/New_York" },
  "PHL": { "name": "Philadelphia International", "city": "Philadelphia", "country": "US", "lat": 39.8719, "lng": -75.2411, "tz": "America/New_York" },
  "EWR": { "name": "Newark Liberty International", "city": "Newark", "country": "US", "lat": 40.6895, "lng": -74.1745, "tz": "America/New_York" },
  "JFK": { "name": "John F. Kennedy International", "city": "New York", "country": "US", "lat": 40.6413, "lng": -73.7781, "tz": "America/New_York" },
  "LGA": { "name": "LaGuardia Airport", "city": "New York", "country": "US", "lat": 40.7772, "lng": -73.8726, "tz": "America/New_York" },
  "BOS": { "name": "Logan International", "city": "Boston", "country": "US", "lat": 42.3656, "lng": -71.0096, "tz": "America/New_York" },
  "DCA": { "name": "Ronald Reagan Washington National", "city": "Washington", "country": "US", "lat": 38.8521, "lng": -77.0377, "tz": "America/New_York" },
  "IAD": { "name": "Washington Dulles International", "city": "Washington", "country": "US", "lat": 38.9531, "lng": -77.4565, "tz": "America/New_York" },
  "ATL": { "name": "Hartsfield-Jackson Atlanta International", "city": "Atlanta", "country": "US", "lat": 33.6407, "lng": -84.4277, "tz": "America/New_York" },
  "MIA": { "name": "Miami International", "city": "Miami", "country": "US", "lat": 25.7959, "lng": -80.287, "tz": "America/New_York" },
  "MCO": { "name": "Orlando International", "city": "Orlando", "country": "US", "lat": 28.4312, "lng": -81.3081, "tz": "America/New_York" },
  "TPA": { "name": "Tampa International", "city": "Tampa", "country": "US", "lat": 27.9755, "lng": -82.5332, "tz": "America/New_York" },
  "HNL": { "name": "Daniel K. Inouye International", "city": "Honolulu", "country": "US", "lat": 21.3245, "lng": -157.9251, "tz": "Pacific/Honolulu" },
  "ANC": { "name": "Ted Stevens Anchorage International", "city": "Anchorage", "country": "US", "lat": 61.1744, "lng": -149.9982, "tz": "America/Anchorage" },
  "LHR": { "name": "London Heathrow", "city": "London", "country": "GB", "lat": 51.477, "lng": -0.4613, "tz": "Europe/London" },
  "LGW": { "name": "London Gatwick", "city": "London", "country": "GB", "lat": 51.1537, "lng": -0.1821, "tz": "Europe/London" },
  "STN": { "name": "London Stansted", "city": "London", "country": "GB", "lat": 51.885, "lng": 0.235, "tz": "Europe/London" },
  "LCY": { "name": "London City Airport", "city": "London", "country": "GB", "lat": 51.5048, "lng": 0.0553, "tz": "Europe/London" },
  "MAN": { "name": "Manchester Airport", "city": "Manchester", "country": "GB", "lat": 53.3537, "lng": -2.275, "tz": "Europe/London" },
  "EDI": { "name": "Edinburgh Airport", "city": "Edinburgh", "country": "GB", "lat": 55.9508, "lng": -3.3615, "tz": "Europe/London" },
  "GLA": { "name": "Glasgow International", "city": "Glasgow", "country": "GB", "lat": 55.8719, "lng": -4.4331, "tz": "Europe/London" },
  "CDG": { "name": "Paris Charles de Gaulle", "city": "Paris", "country": "FR", "lat": 49.0097, "lng": 2.5479, "tz": "Europe/Paris" },
  "ORY": { "name": "Paris Orly", "city": "Paris", "country": "FR", "lat": 48.7262, "lng": 2.3652, "tz": "Europe/Paris" },
  "NCE": { "name": "Nice Côte d'Azur", "city": "Nice", "country": "FR", "lat": 43.6584, "lng": 7.2159, "tz": "Europe/Paris" },
  "LYS": { "name": "Lyon-Saint Exupéry", "city": "Lyon", "country": "FR", "lat": 45.7256, "lng": 5.0811, "tz": "Europe/Paris" },
  "MRS": { "name": "Marseille Provence", "city": "Marseille", "country": "FR", "lat": 43.4393, "lng": 5.2214, "tz": "Europe/Paris" },
  "BOD": { "name": "Bordeaux-Mérignac", "city": "Bordeaux", "country": "FR", "lat": 44.8283, "lng": -0.7156, "tz": "Europe/Paris" },
  "FRA": { "name": "Frankfurt am Main", "city": "Frankfurt", "country": "DE", "lat": 50.0379, "lng": 8.5622, "tz": "Europe/Berlin" },
  "MUC": { "name": "Munich International", "city": "Munich", "country": "DE", "lat": 48.3538, "lng": 11.786, "tz": "Europe/Berlin" },
  "DUS": { "name": "Düsseldorf International", "city": "Düsseldorf", "country": "DE", "lat": 51.2895, "lng": 6.7668, "tz": "Europe/Berlin" },
  "HAM": { "name": "Hamburg Airport", "city": "Hamburg", "country": "DE", "lat": 53.6304, "lng": 9.9882, "tz": "Europe/Berlin" },
  "BER": { "name": "Berlin Brandenburg", "city": "Berlin", "country": "DE", "lat": 52.3667, "lng": 13.5033, "tz": "Europe/Berlin" },
  "STR": { "name": "Stuttgart Airport", "city": "Stuttgart", "country": "DE", "lat": 48.6899, "lng": 9.2219, "tz": "Europe/Berlin" },
  "CGN": { "name": "Cologne Bonn Airport", "city": "Cologne", "country": "DE", "lat": 50.8659, "lng": 7.1427, "tz": "Europe/Berlin" },
  "AMS": { "name": "Amsterdam Schiphol", "city": "Amsterdam", "country": "NL", "lat": 52.3086, "lng": 4.7639, "tz": "Europe/Amsterdam" },
  "BRU": { "name": "Brussels Airport", "city": "Brussels", "country": "BE", "lat": 50.9014, "lng": 4.4844, "tz": "Europe/Brussels" },
  "ZRH": { "name": "Zurich Airport", "city": "Zurich", "country": "CH", "lat": 47.4647, "lng": 8.5492, "tz": "Europe/Zurich" },
  "GVA": { "name": "Geneva Airport", "city": "Geneva", "country": "CH", "lat": 46.238, "lng": 6.1089, "tz": "Europe/Zurich" },
  "VIE": { "name": "Vienna International", "city": "Vienna", "country": "AT", "lat": 48.1102, "lng": 16.5697, "tz": "Europe/Vienna" },
  "FCO": { "name": "Rome Fiumicino", "city": "Rome", "country": "IT", "lat": 41.8003, "lng": 12.2389, "tz": "Europe/Rome" },
  "MXP": { "name": "Milan Malpensa", "city": "Milan", "country": "IT", "lat": 45.6306, "lng": 8.7281, "tz": "Europe/Rome" },
  "LIN": { "name": "Milan Linate", "city": "Milan", "country": "IT", "lat": 45.4495, "lng": 9.2768, "tz": "Europe/Rome" },
  "VCE": { "name": "Venice Marco Polo", "city": "Venice", "country": "IT", "lat": 45.5053, "lng": 12.3519, "tz": "Europe/Rome" },
  "NAP": { "name": "Naples International", "city": "Naples", "country": "IT", "lat": 40.8860, "lng": 14.2908, "tz": "Europe/Rome" },
  "MAD": { "name": "Adolfo Suárez Madrid-Barajas", "city": "Madrid", "country": "ES", "lat": 40.4936, "lng": -3.5668, "tz": "Europe/Madrid" },
  "BCN": { "name": "Barcelona-El Prat", "city": "Barcelona", "country": "ES", "lat": 41.2971, "lng": 2.0785, "tz": "Europe/Madrid" },
  "SVQ": { "name": "Seville Airport", "city": "Seville", "country": "ES", "lat": 37.418, "lng": -5.8931, "tz": "Europe/Madrid" },
  "AGP": { "name": "Málaga-Costa del Sol", "city": "Málaga", "country": "ES", "lat": 36.6749, "lng": -4.4991, "tz": "Europe/Madrid" },
  "LIS": { "name": "Humberto Delgado Airport", "city": "Lisbon", "country": "PT", "lat": 38.7742, "lng": -9.1342, "tz": "Europe/Lisbon" },
  "OPO": { "name": "Francisco de Sá Carneiro Airport", "city": "Porto", "country": "PT", "lat": 41.2481, "lng": -8.6814, "tz": "Europe/Lisbon" },
  "DUB": { "name": "Dublin Airport", "city": "Dublin", "country": "IE", "lat": 53.4213, "lng": -6.2701, "tz": "Europe/Dublin" },
  "CPH": { "name": "Copenhagen Airport", "city": "Copenhagen", "country": "DK", "lat": 55.6181, "lng": 12.6561, "tz": "Europe/Copenhagen" },
  "ARN": { "name": "Stockholm Arlanda", "city": "Stockholm", "country": "SE", "lat": 59.6519, "lng": 17.9186, "tz": "Europe/Stockholm" },
  "OSL": { "name": "Oslo Gardermoen", "city": "Oslo", "country": "NO", "lat": 60.1976, "lng": 11.1004, "tz": "Europe/Oslo" },
  "HEL": { "name": "Helsinki-Vantaa", "city": "Helsinki", "country": "FI", "lat": 60.3172, "lng": 24.9633, "tz": "Europe/Helsinki" },
  "RVK": { "name": "Røros Airport", "city": "Røros", "country": "NO", "lat": 62.5784, "lng": 11.3423, "tz": "Europe/Oslo" },
  "LYR": { "name": "Svalbard Airport", "city": "Longyearbyen", "country": "NO", "lat": 78.2461, "lng": 15.4656, "tz": "Arctic/Longyearbyen" },
  "WAW": { "name": "Warsaw Chopin", "city": "Warsaw", "country": "PL", "lat": 52.1657, "lng": 20.9671, "tz": "Europe/Warsaw" },
  "KRK": { "name": "Kraków John Paul II", "city": "Kraków", "country": "PL", "lat": 50.0777, "lng": 19.7848, "tz": "Europe/Warsaw" },
  "PRG": { "name": "Václav Havel Airport Prague", "city": "Prague", "country": "CZ", "lat": 50.1008, "lng": 14.26, "tz": "Europe/Prague" },
  "BUD": { "name": "Budapest Ferenc Liszt International", "city": "Budapest", "country": "HU", "lat": 47.4369, "lng": 19.2556, "tz": "Europe/Budapest" },
  "OTP": { "name": "Henri Coandă International", "city": "Bucharest", "country": "RO", "lat": 44.5722, "lng": 26.1021, "tz": "Europe/Bucharest" },
  "SOF": { "name": "Sofia Airport", "city": "Sofia", "country": "BG", "lat": 42.6953, "lng": 23.4114, "tz": "Europe/Sofia" },
  "ATH": { "name": "Athens Eleftherios Venizelos", "city": "Athens", "country": "GR", "lat": 37.9364, "lng": 23.9445, "tz": "Europe/Athens" },
  "SKG": { "name": "Thessaloniki Makedonia", "city": "Thessaloniki", "country": "GR", "lat": 40.5197, "lng": 22.9709, "tz": "Europe/Athens" },
  "IST": { "name": "Istanbul Airport", "city": "Istanbul", "country": "TR", "lat": 41.2753, "lng": 28.7519, "tz": "Europe/Istanbul" },
  "SAW": { "name": "Sabiha Gökçen International", "city": "Istanbul", "country": "TR", "lat": 40.8986, "lng": 29.3092, "tz": "Europe/Istanbul" },
  "TLV": { "name": "Ben Gurion International", "city": "Tel Aviv", "country": "IL", "lat": 32.0114, "lng": 34.8867, "tz": "Asia/Jerusalem" },
  "BEY": { "name": "Beirut Rafic Hariri International", "city": "Beirut", "country": "LB", "lat": 33.8209, "lng": 35.4884, "tz": "Asia/Beirut" },
  "DXB": { "name": "Dubai International", "city": "Dubai", "country": "AE", "lat": 25.2528, "lng": 55.3644, "tz": "Asia/Dubai" },
  "AUH": { "name": "Abu Dhabi International", "city": "Abu Dhabi", "country": "AE", "lat": 24.4330, "lng": 54.6511, "tz": "Asia/Dubai" },
  "DOH": { "name": "Hamad International", "city": "Doha", "country": "QA", "lat": 25.2609, "lng": 51.6138, "tz": "Asia/Qatar" },
  "RUH": { "name": "King Khalid International", "city": "Riyadh", "country": "SA", "lat": 24.9576, "lng": 46.6988, "tz": "Asia/Riyadh" },
  "JED": { "name": "King Abdulaziz International", "city": "Jeddah", "country": "SA", "lat": 21.6796, "lng": 39.1565, "tz": "Asia/Riyadh" },
  "CAI": { "name": "Cairo International", "city": "Cairo", "country": "EG", "lat": 30.1219, "lng": 31.4056, "tz": "Africa/Cairo" },
  "CMN": { "name": "Mohammed V International", "city": "Casablanca", "country": "MA", "lat": 33.3675, "lng": -7.5899, "tz": "Africa/Casablanca" },
  "TUN": { "name": "Tunis-Carthage International", "city": "Tunis", "country": "TN", "lat": 36.8510, "lng": 10.2272, "tz": "Africa/Tunis" },
  "ALG": { "name": "Houari Boumediene Airport", "city": "Algiers", "country": "DZ", "lat": 36.6910, "lng": 3.2154, "tz": "Africa/Algiers" },
  "NBO": { "name": "Jomo Kenyatta International", "city": "Nairobi", "country": "KE", "lat": -1.3192, "lng": 36.9275, "tz": "Africa/Nairobi" },
  "ADD": { "name": "Addis Ababa Bole International", "city": "Addis Ababa", "country": "ET", "lat": 8.9779, "lng": 38.799, "tz": "Africa/Addis_Ababa" },
  "DAR": { "name": "Julius Nyerere International", "city": "Dar es Salaam", "country": "TZ", "lat": -6.8781, "lng": 39.2026, "tz": "Africa/Dar_es_Salaam" },
  "JNB": { "name": "O.R. Tambo International", "city": "Johannesburg", "country": "ZA", "lat": -26.1367, "lng": 28.246, "tz": "Africa/Johannesburg" },
  "CPT": { "name": "Cape Town International", "city": "Cape Town", "country": "ZA", "lat": -33.9648, "lng": 18.6017, "tz": "Africa/Johannesburg" },
  "DUR": { "name": "King Shaka International", "city": "Durban", "country": "ZA", "lat": -29.6144, "lng": 31.1197, "tz": "Africa/Johannesburg" },
  "LFW": { "name": "Lomé-Tokoin Airport", "city": "Lomé", "country": "TG", "lat": 6.1656, "lng": 1.2545, "tz": "Africa/Lome" },
  "ABJ": { "name": "Félix-Houphouët-Boigny International", "city": "Abidjan", "country": "CI", "lat": 5.2613, "lng": -3.9263, "tz": "Africa/Abidjan" },
  "ACC": { "name": "Kotoka International", "city": "Accra", "country": "GH", "lat": 5.6052, "lng": -0.1668, "tz": "Africa/Accra" },
  "LOS": { "name": "Murtala Muhammed International", "city": "Lagos", "country": "NG", "lat": 6.5774, "lng": 3.3215, "tz": "Africa/Lagos" },
  "WDH": { "name": "Hosea Kutako International", "city": "Windhoek", "country": "NA", "lat": -22.4799, "lng": 17.4709, "tz": "Africa/Windhoek" },
  "DEL": { "name": "Indira Gandhi International", "city": "Delhi", "country": "IN", "lat": 28.5665, "lng": 77.103, "tz": "Asia/Kolkata" },
  "BOM": { "name": "Chhatrapati Shivaji Maharaj International", "city": "Mumbai", "country": "IN", "lat": 19.0896, "lng": 72.8656, "tz": "Asia/Kolkata" },
  "BLR": { "name": "Kempegowda International", "city": "Bengaluru", "country": "IN", "lat": 13.1986, "lng": 77.7066, "tz": "Asia/Kolkata" },
  "HYD": { "name": "Rajiv Gandhi International", "city": "Hyderabad", "country": "IN", "lat": 17.2403, "lng": 78.4294, "tz": "Asia/Kolkata" },
  "MAA": { "name": "Chennai International", "city": "Chennai", "country": "IN", "lat": 12.9941, "lng": 80.1709, "tz": "Asia/Kolkata" },
  "CCU": { "name": "Netaji Subhas Chandra Bose International", "city": "Kolkata", "country": "IN", "lat": 22.6547, "lng": 88.4467, "tz": "Asia/Kolkata" },
  "KTM": { "name": "Tribhuvan International", "city": "Kathmandu", "country": "NP", "lat": 27.6966, "lng": 85.3591, "tz": "Asia/Kathmandu" },
  "CMB": { "name": "Bandaranaike International", "city": "Colombo", "country": "LK", "lat": 7.1808, "lng": 79.8841, "tz": "Asia/Colombo" },
  "DAC": { "name": "Hazrat Shahjalal International", "city": "Dhaka", "country": "BD", "lat": 23.8433, "lng": 90.3978, "tz": "Asia/Dhaka" },
  "KHI": { "name": "Jinnah International", "city": "Karachi", "country": "PK", "lat": 24.9065, "lng": 67.1608, "tz": "Asia/Karachi" },
  "LHE": { "name": "Allama Iqbal International", "city": "Lahore", "country": "PK", "lat": 31.5216, "lng": 74.4036, "tz": "Asia/Karachi" },
  "KBL": { "name": "Hamid Karzai International", "city": "Kabul", "country": "AF", "lat": 34.5659, "lng": 69.2124, "tz": "Asia/Kabul" },
  "PEK": { "name": "Beijing Capital International", "city": "Beijing", "country": "CN", "lat": 40.0801, "lng": 116.5846, "tz": "Asia/Shanghai" },
  "PKX": { "name": "Beijing Daxing International", "city": "Beijing", "country": "CN", "lat": 39.5094, "lng": 116.4106, "tz": "Asia/Shanghai" },
  "PVG": { "name": "Shanghai Pudong International", "city": "Shanghai", "country": "CN", "lat": 31.1443, "lng": 121.8083, "tz": "Asia/Shanghai" },
  "SHA": { "name": "Shanghai Hongqiao International", "city": "Shanghai", "country": "CN", "lat": 31.1979, "lng": 121.3363, "tz": "Asia/Shanghai" },
  "CAN": { "name": "Guangzhou Baiyun International", "city": "Guangzhou", "country": "CN", "lat": 23.3924, "lng": 113.299, "tz": "Asia/Shanghai" },
  "CTU": { "name": "Chengdu Tianfu International", "city": "Chengdu", "country": "CN", "lat": 30.3121, "lng": 104.444, "tz": "Asia/Shanghai" },
  "XIY": { "name": "Xi'an Xianyang International", "city": "Xi'an", "country": "CN", "lat": 34.4471, "lng": 108.7516, "tz": "Asia/Shanghai" },
  "HGH": { "name": "Hangzhou Xiaoshan International", "city": "Hangzhou", "country": "CN", "lat": 30.2295, "lng": 120.4346, "tz": "Asia/Shanghai" },
  "NKG": { "name": "Nanjing Lukou International", "city": "Nanjing", "country": "CN", "lat": 31.7423, "lng": 118.8622, "tz": "Asia/Shanghai" },
  "URC": { "name": "Ürümqi Diwopu International", "city": "Ürümqi", "country": "CN", "lat": 43.9071, "lng": 87.4742, "tz": "Asia/Shanghai" },
  "HKG": { "name": "Hong Kong International", "city": "Hong Kong", "country": "HK", "lat": 22.3089, "lng": 113.9144, "tz": "Asia/Hong_Kong" },
  "MFM": { "name": "Macau International", "city": "Macau", "country": "MO", "lat": 22.1496, "lng": 113.5919, "tz": "Asia/Macau" },
  "TPE": { "name": "Taiwan Taoyuan International", "city": "Taipei", "country": "TW", "lat": 25.0777, "lng": 121.2328, "tz": "Asia/Taipei" },
  "NRT": { "name": "Tokyo Narita International", "city": "Tokyo", "country": "JP", "lat": 35.7647, "lng": 140.3863, "tz": "Asia/Tokyo" },
  "HND": { "name": "Tokyo Haneda International", "city": "Tokyo", "country": "JP", "lat": 35.5494, "lng": 139.7798, "tz": "Asia/Tokyo" },
  "KIX": { "name": "Kansai International", "city": "Osaka", "country": "JP", "lat": 34.4347, "lng": 135.244, "tz": "Asia/Tokyo" },
  "ITM": { "name": "Osaka Itami", "city": "Osaka", "country": "JP", "lat": 34.7855, "lng": 135.4386, "tz": "Asia/Tokyo" },
  "CTS": { "name": "New Chitose Airport", "city": "Sapporo", "country": "JP", "lat": 42.7752, "lng": 141.6922, "tz": "Asia/Tokyo" },
  "FUK": { "name": "Fukuoka Airport", "city": "Fukuoka", "country": "JP", "lat": 33.5858, "lng": 130.4511, "tz": "Asia/Tokyo" },
  "NGO": { "name": "Chubu Centrair International", "city": "Nagoya", "country": "JP", "lat": 34.8584, "lng": 136.8054, "tz": "Asia/Tokyo" },
  "OKA": { "name": "Naha Airport", "city": "Okinawa", "country": "JP", "lat": 26.1958, "lng": 127.6461, "tz": "Asia/Tokyo" },
  "ICN": { "name": "Incheon International", "city": "Seoul", "country": "KR", "lat": 37.4602, "lng": 126.4407, "tz": "Asia/Seoul" },
  "GMP": { "name": "Gimpo International", "city": "Seoul", "country": "KR", "lat": 37.5583, "lng": 126.7906, "tz": "Asia/Seoul" },
  "PUS": { "name": "Gimhae International", "city": "Busan", "country": "KR", "lat": 35.1795, "lng": 128.9383, "tz": "Asia/Seoul" },
  "SIN": { "name": "Singapore Changi", "city": "Singapore", "country": "SG", "lat": 1.3644, "lng": 103.9915, "tz": "Asia/Singapore" },
  "KUL": { "name": "Kuala Lumpur International", "city": "Kuala Lumpur", "country": "MY", "lat": 2.7456, "lng": 101.7099, "tz": "Asia/Kuala_Lumpur" },
  "BKK": { "name": "Suvarnabhumi Airport", "city": "Bangkok", "country": "TH", "lat": 13.6811, "lng": 100.7475, "tz": "Asia/Bangkok" },
  "DMK": { "name": "Don Mueang International", "city": "Bangkok", "country": "TH", "lat": 13.9126, "lng": 100.6067, "tz": "Asia/Bangkok" },
  "CNX": { "name": "Chiang Mai International", "city": "Chiang Mai", "country": "TH", "lat": 18.7668, "lng": 98.9627, "tz": "Asia/Bangkok" },
  "HKT": { "name": "Phuket International", "city": "Phuket", "country": "TH", "lat": 8.1132, "lng": 98.3169, "tz": "Asia/Bangkok" },
  "SGN": { "name": "Tan Son Nhat International", "city": "Ho Chi Minh City", "country": "VN", "lat": 10.8188, "lng": 106.6519, "tz": "Asia/Ho_Chi_Minh" },
  "HAN": { "name": "Noi Bai International", "city": "Hanoi", "country": "VN", "lat": 21.2211, "lng": 105.8072, "tz": "Asia/Bangkok" },
  "DAD": { "name": "Da Nang International", "city": "Da Nang", "country": "VN", "lat": 16.0439, "lng": 108.1993, "tz": "Asia/Ho_Chi_Minh" },
  "REP": { "name": "Siem Reap International", "city": "Siem Reap", "country": "KH", "lat": 13.4107, "lng": 103.8127, "tz": "Asia/Phnom_Penh" },
  "PNH": { "name": "Phnom Penh International", "city": "Phnom Penh", "country": "KH", "lat": 11.5466, "lng": 104.8441, "tz": "Asia/Phnom_Penh" },
  "RGN": { "name": "Yangon International", "city": "Yangon", "country": "MM", "lat": 16.9073, "lng": 96.1332, "tz": "Asia/Rangoon" },
  "CGK": { "name": "Soekarno-Hatta International", "city": "Jakarta", "country": "ID", "lat": -6.1256, "lng": 106.6559, "tz": "Asia/Jakarta" },
  "DPS": { "name": "Ngurah Rai International", "city": "Bali", "country": "ID", "lat": -8.7482, "lng": 115.1672, "tz": "Asia/Makassar" },
  "MNL": { "name": "Ninoy Aquino International", "city": "Manila", "country": "PH", "lat": 14.5086, "lng": 121.019, "tz": "Asia/Manila" },
  "CEB": { "name": "Mactan-Cebu International", "city": "Cebu", "country": "PH", "lat": 10.3075, "lng": 123.9792, "tz": "Asia/Manila" },
  "SYD": { "name": "Sydney Kingsford Smith", "city": "Sydney", "country": "AU", "lat": -33.9399, "lng": 151.1753, "tz": "Australia/Sydney" },
  "MEL": { "name": "Melbourne Airport", "city": "Melbourne", "country": "AU", "lat": -37.6733, "lng": 144.8433, "tz": "Australia/Melbourne" },
  "BNE": { "name": "Brisbane Airport", "city": "Brisbane", "country": "AU", "lat": -27.3842, "lng": 153.1175, "tz": "Australia/Brisbane" },
  "PER": { "name": "Perth Airport", "city": "Perth", "country": "AU", "lat": -31.9403, "lng": 115.9669, "tz": "Australia/Perth" },
  "ADL": { "name": "Adelaide Airport", "city": "Adelaide", "country": "AU", "lat": -34.945, "lng": 138.5311, "tz": "Australia/Adelaide" },
  "AKL": { "name": "Auckland Airport", "city": "Auckland", "country": "NZ", "lat": -37.0082, "lng": 174.7917, "tz": "Pacific/Auckland" },
  "CHC": { "name": "Christchurch Airport", "city": "Christchurch", "country": "NZ", "lat": -43.4894, "lng": 172.5322, "tz": "Pacific/Auckland" },
  "WLG": { "name": "Wellington Airport", "city": "Wellington", "country": "NZ", "lat": -41.3272, "lng": 174.8051, "tz": "Pacific/Auckland" },
  "NAN": { "name": "Nadi International", "city": "Nadi", "country": "FJ", "lat": -17.7554, "lng": 177.4431, "tz": "Pacific/Fiji" },
  "PPT": { "name": "Faa'a International", "city": "Papeete", "country": "PF", "lat": -17.5534, "lng": -149.6063, "tz": "Pacific/Tahiti" },
  "IPC": { "name": "Mataveri International", "city": "Easter Island", "country": "CL", "lat": -27.1648, "lng": -109.4218, "tz": "Pacific/Easter" },
  "GRU": { "name": "São Paulo Guarulhos International", "city": "São Paulo", "country": "BR", "lat": -23.4356, "lng": -46.4731, "tz": "America/Sao_Paulo" },
  "CGH": { "name": "São Paulo Congonhas", "city": "São Paulo", "country": "BR", "lat": -23.6261, "lng": -46.6553, "tz": "America/Sao_Paulo" },
  "GIG": { "name": "Rio de Janeiro Galeão International", "city": "Rio de Janeiro", "country": "BR", "lat": -22.8099, "lng": -43.2505, "tz": "America/Sao_Paulo" },
  "SDU": { "name": "Santos Dumont Airport", "city": "Rio de Janeiro", "country": "BR", "lat": -22.9105, "lng": -43.1631, "tz": "America/Sao_Paulo" },
  "BSB": { "name": "Brasília International", "city": "Brasília", "country": "BR", "lat": -15.8711, "lng": -47.9186, "tz": "America/Sao_Paulo" },
  "FOR": { "name": "Pinto Martins International", "city": "Fortaleza", "country": "BR", "lat": -3.776, "lng": -38.5326, "tz": "America/Fortaleza" },
  "REC": { "name": "Guararapes International", "city": "Recife", "country": "BR", "lat": -8.1265, "lng": -34.9231, "tz": "America/Recife" },
  "SSA": { "name": "Deputado Luís Eduardo Magalhães", "city": "Salvador", "country": "BR", "lat": -12.9086, "lng": -38.3225, "tz": "America/Bahia" },
  "EZE": { "name": "Ministro Pistarini International", "city": "Buenos Aires", "country": "AR", "lat": -34.8222, "lng": -58.5358, "tz": "America/Argentina/Buenos_Aires" },
  "AEP": { "name": "Jorge Newbery Airfield", "city": "Buenos Aires", "country": "AR", "lat": -34.5592, "lng": -58.4156, "tz": "America/Argentina/Buenos_Aires" },
  "COR": { "name": "Ingeniero Aeronáutico Ambrosio L.V. Taravella", "city": "Córdoba", "country": "AR", "lat": -31.323, "lng": -64.2083, "tz": "America/Argentina/Cordoba" },
  "SCL": { "name": "Arturo Merino Benítez International", "city": "Santiago", "country": "CL", "lat": -33.393, "lng": -70.7858, "tz": "America/Santiago" },
  "PMC": { "name": "El Tepual International", "city": "Puerto Montt", "country": "CL", "lat": -41.4389, "lng": -73.0942, "tz": "America/Santiago" },
  "PUQ": { "name": "Carlos Ibáñez del Campo International", "city": "Punta Arenas", "country": "CL", "lat": -53.0026, "lng": -70.8546, "tz": "America/Punta_Arenas" },
  "LIM": { "name": "Jorge Chávez International", "city": "Lima", "country": "PE", "lat": -12.0219, "lng": -77.1143, "tz": "America/Lima" },
  "BOG": { "name": "El Dorado International", "city": "Bogotá", "country": "CO", "lat": 4.7016, "lng": -74.1469, "tz": "America/Bogota" },
  "MDE": { "name": "José María Córdova International", "city": "Medellín", "country": "CO", "lat": 6.1645, "lng": -75.4231, "tz": "America/Bogota" },
  "CTG": { "name": "Rafael Núñez International", "city": "Cartagena", "country": "CO", "lat": 10.4424, "lng": -75.5131, "tz": "America/Bogota" },
  "UIO": { "name": "Mariscal Sucre International", "city": "Quito", "country": "EC", "lat": -0.1292, "lng": -78.3575, "tz": "America/Guayaquil" },
  "GYE": { "name": "José Joaquín de Olmedo International", "city": "Guayaquil", "country": "EC", "lat": -2.1572, "lng": -79.8836, "tz": "America/Guayaquil" },
  "CCS": { "name": "Simón Bolívar International", "city": "Caracas", "country": "VE", "lat": 10.6031, "lng": -66.9911, "tz": "America/Caracas" },
  "MVD": { "name": "Carrasco International", "city": "Montevideo", "country": "UY", "lat": -34.8384, "lng": -56.0308, "tz": "America/Montevideo" },
  "ASU": { "name": "Silvio Pettirossi International", "city": "Asunción", "country": "PY", "lat": -25.2398, "lng": -57.5198, "tz": "America/Asuncion" },
  "LPB": { "name": "El Alto International", "city": "La Paz", "country": "BO", "lat": -16.5133, "lng": -68.1923, "tz": "America/La_Paz" },
  "MEX": { "name": "Felipe Ángeles International", "city": "Mexico City", "country": "MX", "lat": 19.4363, "lng": -99.0721, "tz": "America/Mexico_City" },
  "GDL": { "name": "Don Miguel Hidalgo y Costilla International", "city": "Guadalajara", "country": "MX", "lat": 20.5218, "lng": -103.3106, "tz": "America/Mexico_City" },
  "MTY": { "name": "General Mariano Escobedo International", "city": "Monterrey", "country": "MX", "lat": 25.7785, "lng": -100.107, "tz": "America/Monterrey" },
  "CUN": { "name": "Cancún International", "city": "Cancún", "country": "MX", "lat": 21.0365, "lng": -86.8771, "tz": "America/Cancun" },
  "SJO": { "name": "Juan Santamaría International", "city": "San José", "country": "CR", "lat": 9.9939, "lng": -84.2088, "tz": "America/Costa_Rica" },
  "PTY": { "name": "Tocumen International", "city": "Panama City", "country": "PA", "lat": 9.0714, "lng": -79.3835, "tz": "America/Panama" },
  "HAV": { "name": "José Martí International", "city": "Havana", "country": "CU", "lat": 22.9892, "lng": -82.4091, "tz": "America/Havana" },
  "SJU": { "name": "Luis Muñoz Marín International", "city": "San Juan", "country": "PR", "lat": 18.4394, "lng": -66.0018, "tz": "America/Puerto_Rico" }
}
